[
  {
    "locationName": "한숲아파트",
    "locationAddress": "대전광역시 동구 계족로489번길 73",
    "latitude": 36.354261,
    "longitude": 127.428529
  },
  {
    "locationName": "가오동 은어송마을3단지",
    "locationAddress": "대전광역시 동구 은어송로 117",
    "latitude": 36.3110919,
    "longitude": 127.4602822
  },
  {
    "locationName": "자양동아아파트",
    "locationAddress": "대전광역시 동구 성동로 74",
    "latitude": 36.3416035,
    "longitude": 127.452192
  },
  {
    "locationName": "은어송마을2단지",
    "locationAddress": "대전광역시 동구 동구청로 35",
    "latitude": 36.301876,
    "longitude": 127.4583176
  },
  {
    "locationName": "용운삼정하이츠아파트",
    "locationAddress": "대전광역시 동구 동부로73번길 95",
    "latitude": 36.3263638,
    "longitude": 127.4579518
  },
  {
    "locationName": "드림팰리스5차(BM)",
    "locationAddress": "대전광역시 동구 가양로 154",
    "latitude": 36.3500849,
    "longitude": 127.4416861
  },
  {
    "locationName": "(BM)삼정그린코아포레스트1단지",
    "locationAddress": "대전광역시 동구 동부로10번길 55",
    "latitude": 36.3189561,
    "longitude": 127.4596332
  },
  {
    "locationName": "신동아아파트",
    "locationAddress": "대전광역시 동구 한밭대로1237번길 52",
    "latitude": 36.3588984,
    "longitude": 127.437811
  },
  {
    "locationName": "새들뫼휴먼시아2단지(BM)",
    "locationAddress": "대전광역시 동구 계족로 135",
    "latitude": 36.3263613,
    "longitude": 127.4435728
  },
  {
    "locationName": "은어송마을6단지",
    "locationAddress": "대전광역시 동구 신기로 100",
    "latitude": 36.3096821,
    "longitude": 127.4570961
  },
  {
    "locationName": "삼익세라믹(BM)",
    "locationAddress": "대전광역시 동구 대전로340번길 20",
    "latitude": 36.2980392,
    "longitude": 127.4610395
  },
  {
    "locationName": "석촌마을아파트(BM)",
    "locationAddress": "대전광역시 동구 우암로 186",
    "latitude": 36.3409845,
    "longitude": 127.4383579
  },
  {
    "locationName": "복음타운",
    "locationAddress": "대전광역시 동구 동부로 170",
    "latitude": 36.3280702,
    "longitude": 127.4672535
  },
  {
    "locationName": "펜타뷰(BM)",
    "locationAddress": "대전광역시 동구 계족로140번길 33",
    "latitude": 36.3273026,
    "longitude": 127.4459051
  },
  {
    "locationName": "반석시티",
    "locationAddress": "대전광역시 동구 대전로807번길 58",
    "latitude": 36.3307239,
    "longitude": 127.4292316
  },
  {
    "locationName": "e편한세상 대전에코포레아파트",
    "locationAddress": "대전광역시 동구 용운로 203",
    "latitude": 36.3288718,
    "longitude": 127.4639219
  },
  {
    "locationName": "용운2고층주공아파트(BM)",
    "locationAddress": "대전광역시 동구 백룡로 138",
    "latitude": 36.3296595,
    "longitude": 127.4539812
  },
  {
    "locationName": "대전역대라수어썸브릿지2차",
    "locationAddress": "대전광역시 동구 삼성동 109-2",
    "latitude": 36.3394493,
    "longitude": 127.4251646
  },
  {
    "locationName": "신흥SK뷰아파트(BM)",
    "locationAddress": "대전광역시 동구 충무로 255",
    "latitude": 36.3188511,
    "longitude": 127.4265741
  },
  {
    "locationName": "목동더샵아파트",
    "locationAddress": "대전광역시 중구 목동로22번길 16",
    "latitude": 36.3335573,
    "longitude": 127.4102753
  },
  {
    "locationName": "쌍용예가",
    "locationAddress": "대전광역시 중구 평촌로 93",
    "latitude": 36.3234709,
    "longitude": 127.3969725
  },
  {
    "locationName": "문화하우스토리2차",
    "locationAddress": "대전광역시 중구 계룡로 922",
    "latitude": 36.319981,
    "longitude": 127.4146075
  },
  {
    "locationName": "용두 미르마을",
    "locationAddress": "대전광역시 중구 선화로22번길 25",
    "latitude": 36.3252054,
    "longitude": 127.4135933
  },
  {
    "locationName": "문화마을 금호어울림",
    "locationAddress": "대전광역시 중구 계백로1716번길 40",
    "latitude": 36.319589,
    "longitude": 127.4096618
  },
  {
    "locationName": "선화센트럴뷰아파트(BM)",
    "locationAddress": "대전광역시 중구 중앙로 45",
    "latitude": 36.3238547,
    "longitude": 127.4167765
  },
  {
    "locationName": "유천현대1차(BM)",
    "locationAddress": "대전광역시 중구 계백로1615번길 34",
    "latitude": 36.320924,
    "longitude": 127.4006536
  },
  {
    "locationName": "푸른뫼벽산아파트(BM)",
    "locationAddress": "대전광역시 중구 수침로 122",
    "latitude": 36.3297802,
    "longitude": 127.3994107
  },
  {
    "locationName": "큰솔6차아파트",
    "locationAddress": "대전광역시 중구 대둔산로 512",
    "latitude": 36.3146795,
    "longitude": 127.3904984
  },
  {
    "locationName": "한신휴플러스보르미",
    "locationAddress": "대전광역시 중구 계백로1686번길 16",
    "latitude": 36.3200023,
    "longitude": 127.4066594
  },
  {
    "locationName": "유등천모아미래도리버뷰",
    "locationAddress": "대전광역시 중구 유등천동로 218",
    "latitude": 36.3033719,
    "longitude": 127.3832448
  },
  {
    "locationName": "드림스테이(BM)",
    "locationAddress": "대전광역시 중구 중앙로 23-17",
    "latitude": 36.3235859,
    "longitude": 127.4145482
  },
  {
    "locationName": "유등마을쌍용(BM)",
    "locationAddress": "대전광역시 중구 수침로 138",
    "latitude": 36.3318165,
    "longitude": 127.3988748
  },
  {
    "locationName": "삼부1단지(BM)",
    "locationAddress": "대전광역시 중구 태평로 80",
    "latitude": 36.3239044,
    "longitude": 127.3947329
  },
  {
    "locationName": "센트럴파크1단지(BM)",
    "locationAddress": "대전광역시 중구 서문로 95",
    "latitude": 36.3162847,
    "longitude": 127.4066242
  },
  {
    "locationName": "센트럴자이1단지(BM)",
    "locationAddress": "대전광역시 중구 충무로107번길 100",
    "latitude": 36.3222343,
    "longitude": 127.4277301
  },
  {
    "locationName": "금호한사랑(BM)",
    "locationAddress": "대전광역시 중구 동서대로 1388",
    "latitude": 36.3316823,
    "longitude": 127.4126943
  },
  {
    "locationName": "파라곤아파트(BM)",
    "locationAddress": "대전광역시 중구 유등천동로 428",
    "latitude": 36.3205743,
    "longitude": 127.3881777
  },
  {
    "locationName": "문화로얄아파트(BM)",
    "locationAddress": "대전광역시 중구 서문로43번길 39",
    "latitude": 36.3122464,
    "longitude": 127.4060911
  },
  {
    "locationName": "우남스타원(BM)",
    "locationAddress": "대전광역시 중구 안영로 68",
    "latitude": 36.2947937,
    "longitude": 127.3829124
  },
  {
    "locationName": "한밭가든(BM)",
    "locationAddress": "대전광역시 중구 보문산로 31",
    "latitude": 36.3055023,
    "longitude": 127.3840312
  },
  {
    "locationName": "유천현대2차아파트(BM)",
    "locationAddress": "대전광역시 중구 계백로1615번길 34",
    "latitude": 36.320924,
    "longitude": 127.4006536
  },
  {
    "locationName": "중앙로센텀시티",
    "locationAddress": "대전광역시 중구 중앙로138번길 48",
    "latitude": 36.3263352,
    "longitude": 127.4258662
  },
  {
    "locationName": "문화주공3단지(BM)",
    "locationAddress": "대전광역시 중구 산성로 108-23",
    "latitude": 36.309957,
    "longitude": 127.4004593
  },
  {
    "locationName": "유진하나(BM)",
    "locationAddress": "대전광역시 중구 태평로44번길 53",
    "latitude": 36.3215983,
    "longitude": 127.3954383
  },
  {
    "locationName": "서대전역 코아루써밋(BM)",
    "locationAddress": "대전광역시 중구 오류로 13-10",
    "latitude": 36.3217393,
    "longitude": 127.4045431
  },
  {
    "locationName": "중촌역푸르지오센터파크(BM)",
    "locationAddress": "대전광역시 중구 대전천서로 709",
    "latitude": 36.3459109,
    "longitude": 127.4092221
  },
  {
    "locationName": "센트럴파크2단지",
    "locationAddress": "대전광역시 중구 서문로 96",
    "latitude": 36.3171959,
    "longitude": 127.4094206
  },
  {
    "locationName": "문화주공2단지",
    "locationAddress": "대전광역시 중구 산성로 108-24",
    "latitude": 36.30914,
    "longitude": 127.3992552
  },
  {
    "locationName": "우방아이유쉘 스카이팰리스",
    "locationAddress": "대전광역시 중구 오류로 31",
    "latitude": 36.3231699,
    "longitude": 127.4039279
  },
  {
    "locationName": "삼부5단지",
    "locationAddress": "대전광역시 중구 태평로 89",
    "latitude": 36.3246625,
    "longitude": 127.3932938
  },
  {
    "locationName": "대흥현대2차아파트",
    "locationAddress": "대전광역시 중구 보문로162번길 23",
    "latitude": 36.3187219,
    "longitude": 127.4268266
  },
  {
    "locationName": "늘푸른아파트",
    "locationAddress": "대전광역시 중구 동서대로 1347",
    "latitude": 36.3302334,
    "longitude": 127.4079652
  },
  {
    "locationName": "목동 모아엘가그랑데(BM)",
    "locationAddress": "대전광역시 중구 동서대로1403번길 36",
    "latitude": 36.3351433,
    "longitude": 127.4110914
  },
  {
    "locationName": "태평아파트(BM)",
    "locationAddress": "대전광역시 중구 평촌로 111",
    "latitude": 36.3238813,
    "longitude": 127.399325
  },
  {
    "locationName": "대전 하늘채 스카이앤 1차(BM)",
    "locationAddress": "대전광역시 중구 대종로594번길 51",
    "latitude": 36.3355565,
    "longitude": 127.4189547
  },
  {
    "locationName": "현암에버드림아파트(BM)",
    "locationAddress": "대전광역시 중구 대종로 605",
    "latitude": 36.3354928,
    "longitude": 127.4168846
  },
  {
    "locationName": "솔리안시티(BM)",
    "locationAddress": "대전광역시 중구 계룡로 931",
    "latitude": 36.3252092,
    "longitude": 127.4087471
  },
  {
    "locationName": "창조아파트(BM)",
    "locationAddress": "대전광역시 중구 부용로 15",
    "latitude": 36.3119867,
    "longitude": 127.4319571
  },
  {
    "locationName": "서구청",
    "locationAddress": "대전 서구 둔산서로 100",
    "latitude": 36.3550703,
    "longitude": 127.3838086
  },
  {
    "locationName": "한우리아파트",
    "locationAddress": "대전광역시 서구 문정로90번길 60",
    "latitude": 36.3449684,
    "longitude": 127.3883487
  },
  {
    "locationName": "월평_샛별아파트",
    "locationAddress": "대전광역시 서구 청사서로 29",
    "latitude": 36.360415,
    "longitude": 127.3755035
  },
  {
    "locationName": "오량마을마루미(BM)",
    "locationAddress": "대전광역시 서구 복수중로 30",
    "latitude": 36.3067887,
    "longitude": 127.3770636
  },
  {
    "locationName": "개나리아파트",
    "locationAddress": "대전광역시 서구 문정로10번길 39",
    "latitude": 36.3450032,
    "longitude": 127.3829529
  },
  {
    "locationName": "무궁화",
    "locationAddress": "대전광역시 서구 청사서로 70",
    "latitude": 36.3637317,
    "longitude": 127.3779686
  },
  {
    "locationName": "모닝빌(BM)",
    "locationAddress": "대전광역시 서구 도마로 59",
    "latitude": 36.3225877,
    "longitude": 127.3768568
  },
  {
    "locationName": "아이누리(BM)",
    "locationAddress": "대전광역시 서구 계룡로686번길 18",
    "latitude": 36.3352586,
    "longitude": 127.3955935
  },
  {
    "locationName": "은아아파트1단지",
    "locationAddress": "대전광역시 서구 가수원로 72",
    "latitude": 36.3019764,
    "longitude": 127.3516031
  },
  {
    "locationName": "초록마을2단지아파트",
    "locationAddress": "대전광역시 서구 복수동로 21-20",
    "latitude": 36.3014915,
    "longitude": 127.3802287
  },
  {
    "locationName": "무지개아파트(BM)",
    "locationAddress": "대전광역시 서구 청사서로 11",
    "latitude": 36.3588726,
    "longitude": 127.3754943
  },
  {
    "locationName": "강변(BM)",
    "locationAddress": "대전광역시 서구 만년로 25",
    "latitude": 36.3686521,
    "longitude": 127.3759282
  },
  {
    "locationName": "관저더샵1차(BM)",
    "locationAddress": "대전광역시 서구 관저서로 19",
    "latitude": 36.294567,
    "longitude": 127.329292
  },
  {
    "locationName": "산호한양아파트",
    "locationAddress": "대전광역시 서구 계룡로571번길 65",
    "latitude": 36.3447277,
    "longitude": 127.386703
  },
  {
    "locationName": "KT빌리지아파트",
    "locationAddress": "대전광역시 서구 갈마로 160",
    "latitude": 36.3373024,
    "longitude": 127.3744396
  },
  {
    "locationName": "진달래(BM)",
    "locationAddress": "대전광역시 서구 월평동로 45",
    "latitude": 36.3590198,
    "longitude": 127.3668811
  },
  {
    "locationName": "초록마을5단지(BM)",
    "locationAddress": "대전광역시 서구 유등로17번길 109",
    "latitude": 36.2981241,
    "longitude": 127.3734261
  },
  {
    "locationName": "효성해링턴플레이스(BM)",
    "locationAddress": "대전광역시 서구 관저동로 12",
    "latitude": 36.2930902,
    "longitude": 127.3415887
  },
  {
    "locationName": "초원아파트",
    "locationAddress": "대전광역시 서구 만년로 45",
    "latitude": 36.3682706,
    "longitude": 127.3780197
  },
  {
    "locationName": "관저더샵2차",
    "locationAddress": "대전광역시 서구 구봉산북로 52",
    "latitude": 36.2928475,
    "longitude": 127.325893
  },
  {
    "locationName": "정림우성1단지(BM)",
    "locationAddress": "대전광역시 서구 정림로 55",
    "latitude": 36.3049182,
    "longitude": 127.3641876
  },
  {
    "locationName": "전원아파트(BM)",
    "locationAddress": "대전광역시 서구 월평중로 50",
    "latitude": 36.3591573,
    "longitude": 127.3647205
  },
  {
    "locationName": "복수센트럴자이(BM)",
    "locationAddress": "대전광역시 서구 복수서로 15",
    "latitude": 36.3062862,
    "longitude": 127.3720939
  },
  {
    "locationName": "둥지아파트",
    "locationAddress": "대전광역시 서구 청사로 254",
    "latitude": 36.3588426,
    "longitude": 127.3920554
  },
  {
    "locationName": "국화라이프아파트",
    "locationAddress": "대전광역시 서구 둔산로 201",
    "latitude": 36.3539533,
    "longitude": 127.3974348
  },
  {
    "locationName": "갤러리빌럭스",
    "locationAddress": "대전광역시 서구 한밭대로 701",
    "latitude": 36.3581884,
    "longitude": 127.3769181
  },
  {
    "locationName": "봉쥬르카운티(BM)",
    "locationAddress": "대전광역시 서구 둔산중로64번길 25",
    "latitude": 36.3526063,
    "longitude": 127.3882883
  },
  {
    "locationName": "가수원 계룡아파트",
    "locationAddress": "대전광역시 서구 가수원로 98",
    "latitude": 36.3028554,
    "longitude": 127.3508015
  },
  {
    "locationName": "은아아파트3단지",
    "locationAddress": "대전광역시 서구 가수원로 106",
    "latitude": 36.3040257,
    "longitude": 127.3508373
  },
  {
    "locationName": "한마루삼성아파트",
    "locationAddress": "대전광역시 서구 둔산북로 160",
    "latitude": 36.3546658,
    "longitude": 127.3920738
  },
  {
    "locationName": "(BM)e편한세상 둔산1단지",
    "locationAddress": "대전광역시 서구 탄방로 65",
    "latitude": 36.343023,
    "longitude": 127.3946174
  },
  {
    "locationName": "(BM)e편한세상 둔산2단지",
    "locationAddress": "대전광역시 서구 탄방로 65",
    "latitude": 36.343023,
    "longitude": 127.3946174
  },
  {
    "locationName": "관저예미지명가의풍경(BM)",
    "locationAddress": "대전광역시 서구 관저중로 33",
    "latitude": 36.2939294,
    "longitude": 127.3332258
  },
  {
    "locationName": "정림동삼정하이츠아파트",
    "locationAddress": "대전광역시 서구 정림서로 114",
    "latitude": 36.2980369,
    "longitude": 127.363181
  },
  {
    "locationName": "은아2단지아파트",
    "locationAddress": "대전광역시 서구 계백로1158번길 113",
    "latitude": 36.300249,
    "longitude": 127.3548445
  },
  {
    "locationName": "누리아파트",
    "locationAddress": "대전광역시 서구 청사로 70",
    "latitude": 36.3589076,
    "longitude": 127.3713554
  },
  {
    "locationName": "영풍빌라타운(BM)",
    "locationAddress": "대전광역시 서구 신갈마로211번안길 104",
    "latitude": 36.3486637,
    "longitude": 127.3639931
  },
  {
    "locationName": "효성타운아파트",
    "locationAddress": "대전광역시 서구 도산로 11",
    "latitude": 36.310563,
    "longitude": 127.3833803
  },
  {
    "locationName": "햇님아파트",
    "locationAddress": "대전광역시 서구 둔산북로 175",
    "latitude": 36.3562961,
    "longitude": 127.3926803
  },
  {
    "locationName": "관저어반힐스",
    "locationAddress": "대전광역시 서구 관저남로 80",
    "latitude": 36.2947401,
    "longitude": 127.342782
  },
  {
    "locationName": "하나로아파트",
    "locationAddress": "대전광역시 서구 청사로 5",
    "latitude": 36.3607734,
    "longitude": 127.3649903
  },
  {
    "locationName": "리베라아이누리(BM)",
    "locationAddress": "대전광역시 서구 용문로 41-80",
    "latitude": 36.339549,
    "longitude": 127.3890071
  },
  {
    "locationName": "천일월드빌 아파트",
    "locationAddress": "대전광역시 서구 유등로 343",
    "latitude": 36.3220393,
    "longitude": 127.3844112
  },
  {
    "locationName": "은아아파트5단지",
    "locationAddress": "대전광역시 서구 가수원로 6",
    "latitude": 36.2985113,
    "longitude": 127.3555849
  },
  {
    "locationName": "둔산청솔아파트",
    "locationAddress": "대전광역시 서구 둔산로 223",
    "latitude": 36.3524331,
    "longitude": 127.3986578
  },
  {
    "locationName": "백목련아파트(BM)",
    "locationAddress": "대전광역시 서구 정림서로138번길 21",
    "latitude": 36.2999306,
    "longitude": 127.364679
  },
  {
    "locationName": "갤러리휴리움(BM)",
    "locationAddress": "대전광역시 서구 신갈마로 186",
    "latitude": 36.3505098,
    "longitude": 127.368735
  },
  {
    "locationName": "삼익목화2차아파트(BM)",
    "locationAddress": "대전광역시 서구 복수북로 42",
    "latitude": 36.3076128,
    "longitude": 127.3745616
  },
  {
    "locationName": "내동롯데아파트(BM)",
    "locationAddress": "대전광역시 서구 신갈마로 46",
    "latitude": 36.3388785,
    "longitude": 127.3676099
  },
  {
    "locationName": "트리풀시티 레이크포레(BM)",
    "locationAddress": "대전광역시 서구 도안동로 234",
    "latitude": 36.3177491,
    "longitude": 127.3488522
  },
  {
    "locationName": "도마e편한세상포레나(BM)",
    "locationAddress": "대전광역시 서구 도산로 8",
    "latitude": 36.3266612,
    "longitude": 127.3873249
  },
  {
    "locationName": "신성아파트(BM)",
    "locationAddress": "대전광역시 서구 동서대로1014번길 25",
    "latitude": 36.3313761,
    "longitude": 127.3742765
  },
  {
    "locationName": "황실타운아파트(BM)",
    "locationAddress": "대전광역시 서구 청사로 65",
    "latitude": 36.3609467,
    "longitude": 127.3717445
  },
  {
    "locationName": "초록마을리슈빌아파트",
    "locationAddress": "대전광역시 서구 복수동로51번길 43",
    "latitude": 36.3000252,
    "longitude": 127.3812138
  },
  {
    "locationName": "봉쥬르카운티2(BM)",
    "locationAddress": "대전광역시 서구 둔산로65번길 24",
    "latitude": 36.3534987,
    "longitude": 127.3810788
  },
  {
    "locationName": "대전용문행복주택",
    "locationAddress": "대전광역시 서구 용문로 117",
    "latitude": 36.3375535,
    "longitude": 127.3901173
  },
  {
    "locationName": "꿈나무아파트",
    "locationAddress": "대전광역시 서구 청사로 253",
    "latitude": 36.3602874,
    "longitude": 127.391816
  },
  {
    "locationName": "삼익목화1차(BM)",
    "locationAddress": "대전광역시 서구 복수서로 50",
    "latitude": 36.3079353,
    "longitude": 127.3758195
  },
  {
    "locationName": "맑은아침(BM)",
    "locationAddress": "대전광역시 서구 갈마로 262",
    "latitude": 36.333215,
    "longitude": 127.3810129
  },
  {
    "locationName": "동기포에버아파트",
    "locationAddress": "대전광역시 서구 도마로57번길 42",
    "latitude": 36.3244572,
    "longitude": 127.3769605
  },
  {
    "locationName": "이랜드피어둔산",
    "locationAddress": "대전광역시 서구 한밭대로 809",
    "latitude": 36.3583027,
    "longitude": 127.3889139
  },
  {
    "locationName": "써머스빌(BM)",
    "locationAddress": "대전광역시 서구 계백로 1426",
    "latitude": 36.3126233,
    "longitude": 127.3797905
  },
  {
    "locationName": "큰마을아파트(BM)",
    "locationAddress": "대전광역시 서구 대덕대로 150",
    "latitude": 36.3446889,
    "longitude": 127.3768706
  },
  {
    "locationName": "갈마아파트(BM)",
    "locationAddress": "대전광역시 서구 신갈마로 95",
    "latitude": 36.3432015,
    "longitude": 127.3668631
  },
  {
    "locationName": "수목토아파트(BM)",
    "locationAddress": "대전광역시 서구 도안동로 177",
    "latitude": 36.3196493,
    "longitude": 127.3458957
  },
  {
    "locationName": "다모아타운아파트(BM)",
    "locationAddress": "대전광역시 서구 월평동로 83",
    "latitude": 36.3620689,
    "longitude": 127.3681691
  },
  {
    "locationName": "국화신동아아파트(BM)",
    "locationAddress": "대전광역시 서구 둔산로 201",
    "latitude": 36.3539533,
    "longitude": 127.3974348
  },
  {
    "locationName": "유성구청",
    "locationAddress": "대전 유성구 대학로 211",
    "latitude": 36.3620838,
    "longitude": 127.3563836
  },
  {
    "locationName": "열매마을9단지",
    "locationAddress": "대전광역시 유성구 은구비남로 56",
    "latitude": 36.3715064,
    "longitude": 127.3218984
  },
  {
    "locationName": "하우스토리네오미아",
    "locationAddress": "대전광역시 유성구 덕명로 63",
    "latitude": 36.3581777,
    "longitude": 127.3053563
  },
  {
    "locationName": "열매마을5단지",
    "locationAddress": "대전광역시 유성구 은구비로 31",
    "latitude": 36.3772545,
    "longitude": 127.3189812
  },
  {
    "locationName": "열매마을8단지",
    "locationAddress": "대전광역시 유성구 은구비남로 34",
    "latitude": 36.3707879,
    "longitude": 127.3192857
  },
  {
    "locationName": "하늘바람휴먼시아1단지",
    "locationAddress": "대전광역시 유성구 와룡로136번길 15",
    "latitude": 36.4389645,
    "longitude": 127.3829688
  },
  {
    "locationName": "드림월드",
    "locationAddress": "대전광역시 유성구 문화원로 13",
    "latitude": 36.3625911,
    "longitude": 127.3384911
  },
  {
    "locationName": "열매마을10단지",
    "locationAddress": "대전광역시 유성구 노은동로 111",
    "latitude": 36.3702136,
    "longitude": 127.3219556
  },
  {
    "locationName": "유성자이아파트",
    "locationAddress": "대전광역시 유성구 계룡로 55",
    "latitude": 36.355755,
    "longitude": 127.337136
  },
  {
    "locationName": "자연아파트",
    "locationAddress": "대전광역시 유성구 궁동로 49",
    "latitude": 36.3643192,
    "longitude": 127.3503163
  },
  {
    "locationName": "열매마을7단지",
    "locationAddress": "대전광역시 유성구 은구비남로 55",
    "latitude": 36.3730809,
    "longitude": 127.3218029
  },
  {
    "locationName": "한울아파트",
    "locationAddress": "대전광역시 유성구 가정로 43",
    "latitude": 36.3858379,
    "longitude": 127.3470677
  },
  {
    "locationName": "장대푸르지오아파트",
    "locationAddress": "대전광역시 유성구 장대로71번길 34",
    "latitude": 36.36135,
    "longitude": 127.3321425
  },
  {
    "locationName": "죽동푸르지오",
    "locationAddress": "대전광역시 유성구 죽동로 251",
    "latitude": 36.3735132,
    "longitude": 127.3396209
  },
  {
    "locationName": "CJ나인파크",
    "locationAddress": "대전광역시 유성구 계룡로 92",
    "latitude": 36.3534596,
    "longitude": 127.3406306
  },
  {
    "locationName": "대전청년하우스",
    "locationAddress": "대전광역시 유성구 엑스포로97번길 103",
    "latitude": 36.3783258,
    "longitude": 127.3895711
  },
  {
    "locationName": "송림마을1단지",
    "locationAddress": "대전광역시 유성구 송림로 13",
    "latitude": 36.3886438,
    "longitude": 127.3184135
  },
  {
    "locationName": "테크노센트럴시티오피스텔(BM)",
    "locationAddress": "대전광역시 유성구 테크노중앙로 47",
    "latitude": 36.4270386,
    "longitude": 127.3913122
  },
  {
    "locationName": "가이아(테스트)",
    "locationAddress": "대전광역시 유성구 유성대로1596번길 32-36",
    "latitude": 36.4021206,
    "longitude": 127.3854123
  },
  {
    "locationName": "대전아이파크시티1단지",
    "locationAddress": "대전광역시 유성구 복용동로79번길 30",
    "latitude": 36.3383095,
    "longitude": 127.3236532
  },
  {
    "locationName": "유성대광로제비앙(BM)",
    "locationAddress": "대전광역시 유성구 와룡로 206",
    "latitude": 36.4342184,
    "longitude": 127.381805
  },
  {
    "locationName": "카운티스빌라(노은카운티스)",
    "locationAddress": "대전광역시 유성구 노은서로 124",
    "latitude": 36.3705135,
    "longitude": 127.3163255
  },
  {
    "locationName": "노블레스3주상복합아파트",
    "locationAddress": "대전광역시 유성구 문화원로 123",
    "latitude": 36.3587837,
    "longitude": 127.349603
  },
  {
    "locationName": "반석마을7단지아파트",
    "locationAddress": "대전광역시 유성구 반석서로 109",
    "latitude": 36.3961027,
    "longitude": 127.3094884
  },
  {
    "locationName": "학하리슈빌포레아파트",
    "locationAddress": "대전광역시 유성구 학하남로90번길 76",
    "latitude": 36.334118,
    "longitude": 127.3086909
  },
  {
    "locationName": "드리움1단지아파트",
    "locationAddress": "대전광역시 유성구 대정로28번길 50",
    "latitude": 36.3138824,
    "longitude": 127.3227023
  },
  {
    "locationName": "한진오피스텔",
    "locationAddress": "대전광역시 유성구 계룡로105번길 15",
    "latitude": 36.3543196,
    "longitude": 127.3425386
  },
  {
    "locationName": "서한이다음2단지",
    "locationAddress": "대전광역시 유성구 과학성장로 33",
    "latitude": 36.4600107,
    "longitude": 127.3615442
  },
  {
    "locationName": "둔곡우미린사이언스포레",
    "locationAddress": "대전광역시 유성구 과학성장로 80",
    "latitude": 36.4600107,
    "longitude": 127.3615442
  },
  {
    "locationName": "비래한신휴플러스아파트",
    "locationAddress": "대전광역시 대덕구 비래서로10번길 21",
    "latitude": 36.3546407,
    "longitude": 127.4463254
  },
  {
    "locationName": "중리영진로얄아파트",
    "locationAddress": "대전광역시 대덕구 중리서로 31",
    "latitude": 36.3618608,
    "longitude": 127.4209285
  },
  {
    "locationName": "그린타운아파트",
    "locationAddress": "대전광역시 대덕구 동춘당로 151",
    "latitude": 36.3667872,
    "longitude": 127.4351253
  },
  {
    "locationName": "한밭아파트",
    "locationAddress": "대전광역시 대덕구 석봉로58번안길 82",
    "latitude": 36.4466563,
    "longitude": 127.4242524
  },
  {
    "locationName": "나이스팰리스(BM)",
    "locationAddress": "대전광역시 대덕구 대전로1032번길 13-13",
    "latitude": 36.3478949,
    "longitude": 127.4172022
  },
  {
    "locationName": "선비마을5단지아파트",
    "locationAddress": "대전광역시 대덕구 계족산로 136",
    "latitude": 36.3651242,
    "longitude": 127.4462634
  },
  {
    "locationName": "삼익둥지아파트",
    "locationAddress": "대전광역시 대덕구 신상로 21",
    "latitude": 36.3558144,
    "longitude": 127.4558211
  },
  {
    "locationName": "영진로얄맨션(BM)",
    "locationAddress": "대전광역시 대덕구 대전로1020번길 86",
    "latitude": 36.3496665,
    "longitude": 127.4199667
  },
  {
    "locationName": "임광하이츠아파트",
    "locationAddress": "대전광역시 대덕구 홍도로135번길 35",
    "latitude": 36.3580378,
    "longitude": 127.4251408
  },
  {
    "locationName": "드림팰리스(BM)",
    "locationAddress": "대전광역시 대덕구 비래서로10번길 86",
    "latitude": 36.3519244,
    "longitude": 127.4435095
  },
  {
    "locationName": "선비마을1단지(BM)",
    "locationAddress": "대전광역시 대덕구 계족로690번길 21",
    "latitude": 36.3729222,
    "longitude": 127.4301155
  },
  {
    "locationName": "선비마을2단지(BM)",
    "locationAddress": "대전광역시 대덕구 동춘당로114번길 47",
    "latitude": 36.3686042,
    "longitude": 127.4389096
  },
  {
    "locationName": "소라아파트(BM)",
    "locationAddress": "대전광역시 대덕구 동심1길 103",
    "latitude": 36.362782,
    "longitude": 127.4130992
  },
  {
    "locationName": "안전로얄(BM)",
    "locationAddress": "대전광역시 대덕구 홍도로135번길 121",
    "latitude": 36.3577934,
    "longitude": 127.4198577
  },
  {
    "locationName": "비래동현대아파트(BM)",
    "locationAddress": "대전광역시 대덕구 우암로 394",
    "latitude": 36.353796,
    "longitude": 127.455298
  },
  {
    "locationName": "현대아파트(BM)",
    "locationAddress": "대전광역시 대덕구 계족로761번길 24",
    "latitude": 36.3785984,
    "longitude": 127.4253562
  },
  {
    "locationName": "아이조움(BM)",
    "locationAddress": "대전광역시 대덕구 비래서로61번길 71",
    "latitude": 36.3572035,
    "longitude": 127.4524686
  },
  {
    "locationName": "금성백조1차(BM)",
    "locationAddress": "대전광역시 대덕구 우암로412번길 45",
    "latitude": 36.356868,
    "longitude": 127.4551472
  },
  {
    "locationName": "금강센트럴파크서희스타힐스(BM)",
    "locationAddress": "대전광역시 대덕구 대덕대로1585번길 44",
    "latitude": 36.4540355,
    "longitude": 127.4255109
  },
  {
    "locationName": "금성백조2차(BM)",
    "locationAddress": "대전광역시 대덕구 우암동로 2",
    "latitude": 36.3582964,
    "longitude": 127.4518684
  },
  {
    "locationName": "한남 아파트(BM)",
    "locationAddress": "대전광역시 대덕구 대전로1020번길 85",
    "latitude": 36.349556,
    "longitude": 127.4191591
  },
  {
    "locationName": "평원아파트(BM)",
    "locationAddress": "대전광역시 대덕구 동춘당로15번길 54",
    "latitude": 36.358641,
    "longitude": 127.4451614
  },
  {
    "locationName": "동원상록수아파트(BM)",
    "locationAddress": "대전광역시 대덕구 대덕대로1470번길 27",
    "latitude": 36.4482768,
    "longitude": 127.4131988
  },
  {
    "locationName": "금강로하스엘크루(BM)",
    "locationAddress": "대전광역시 대덕구 대덕대로 1587",
    "latitude": 36.4529348,
    "longitude": 127.4228199
  },
  {
    "locationName": "동일스위트리버스카이(BM)",
    "locationAddress": "대전광역시 대덕구 대청로 45",
    "latitude": 36.4524738,
    "longitude": 127.4327967
  },
  {
    "locationName": "두레마을아파트(BM)",
    "locationAddress": "대전광역시 대덕구 대덕대로1520번길 55",
    "latitude": 36.4469546,
    "longitude": 127.4161709
  },
  {
    "locationName": "유락아파트(BM)",
    "locationAddress": "대전광역시 대덕구 석봉로44번길 13",
    "latitude": 36.4465279,
    "longitude": 127.4275478
  },
  {
    "locationName": "보람아파트(BM)",
    "locationAddress": "대전광역시 대덕구 동춘당로 178",
    "latitude": 36.3690523,
    "longitude": 127.4310904
  },
  {
    "locationName": "동일스위트 리버스카이 2단지(BM)",
    "locationAddress": "대전광역시 대덕구 대청로 53",
    "latitude": 36.4529955,
    "longitude": 127.4344459
  },
  {
    "locationName": "양지마을아파트(BM)",
    "locationAddress": "대전광역시 대덕구 대전로1185번길 30",
    "latitude": 36.3597409,
    "longitude": 127.4138885
  },
  {
    "locationName": "행복한마을아파트",
    "locationAddress": "대전광역시 대덕구 덕암로 200",
    "latitude": 36.4381309,
    "longitude": 127.4241778
  },
  {
    "locationName": "오광아파트(BM)",
    "locationAddress": "대전광역시 대덕구 생산5길 22",
    "latitude": 36.364446,
    "longitude": 127.4096816
  }
]